[
  {
    "name": "역곡남부 민영 주차장",
    "LAT": "37.484846",
    "LNG": "126.812475"
  },
  {
    "name": "가톨릭대학교 성심교정 주차장",
    "LAT": "37.485927",
    "LNG": "126.801970"
  },
  {
    "name": "소사종합시장 공영주차장",
    "LAT": "37.479048",
    "LNG": "126.793487"
  },
  {
    "name": "송내북부공영주차장",
    "LAT": "37.488769",
    "LNG": "126.756266"
  },
  {
    "name": "부천남부역공영주차장",
    "LAT": "37.483428",
    "LNG": "126.782933"
  }
]