[
  {
    "name": "역곡청암 노상 공영주차장",
    "LAT": "37.488901",
    "LNG": "126.813085",
    "time": "00:00~24:00",
    "fee": "1시간당 3,000원",
    "capacity": "총 42면"
  },
  {
    "name": "가톨릭대학교 성심교정 주차장",
    "LAT": "37.485927",
    "LNG": "126.801970",
    "time": "00:00~24:00",
    "fee": "1일당 2,000원",
    "capacity": "총 300면"
  },
  {
    "name": "소사종합시장 공영주차장",
    "LAT": "37.479048",
    "LNG": "126.793487",
    "time": "00:00~24:00",
    "fee": "1시간당 1,400원",
    "capacity": "총 100면"
  },
  {
    "name": "송내북부공영주차장",
    "LAT": "37.488769",
    "LNG": "126.756266",
    "time": "00:00~24:00",
    "fee": "1시간당 2,100원",
    "capacity": "총 65면"
  },
  {
    "name": "부천남부역공영주차장",
    "LAT": "37.483428",
    "LNG": "126.782933",
    "time": "08:00~24:00",
    "fee": "1시간당 2,100원",
    "capacity": "총 48면"
  }
]